{"latitude": "12.986375", "Phone": 9327832737, "name": "Chris", "longitude": "77.043701"}
{"latitude": "11.92893", "Phone": 6437674334, "name": "Alice", "longitude": "78.27699"}
{"latitude": "11.8856167", "Phone": 3478343843, "name": "Ian", "longitude": "78.4240911"}
{"latitude": "12.3191841", "Phone": 3344444443, "name": "Jack", "longitude": "78.5072391"}
{"latitude": "13.807778", "Phone": 7438349834, "name": "Charlie", "longitude": "76.714444"}
{"latitude": "13.4692815", "Phone": 8943398434, "name": "Frank", "longitude": "-9.436036"}
{"latitude": "14.0894797", "Phone": 9439433444, "name": "Eoin", "longitude": "77.18671"}
{"latitude": "13.038056", "Phone": 3934094343, "name": "Stephen", "longitude": "76.613889"}
{"latitude": "14.1225", "Phone": 4389434343, "name": "Enid", "longitude": "78.143333"}
{"latitude": "13.1229599", "Phone": 1283298924, "name": "Theresa", "longitude": "77.2701202"}
{"latitude": "12.2559432", "Phone": 8493438434, "name": "Jack", "longitude": "76.1048927"}
{"latitude": "12.240382", "Phone": 1940934384, "name": "Georgina", "longitude": "77.972413"}
{"latitude": "13.2411022", "Phone": 5433478348, "name": "Ian", "longitude": "77.238335"}
{"latitude": "13.1302756", "Phone": 5894384834, "name": "Nora", "longitude": "77.2397222"}
{"latitude": "13.008769", "Phone": 8794834832, "name": "Richard", "longitude": "77.1056711"}
{"latitude": "13.1489345", "Phone": 6675474547, "name": "Alan", "longitude": "77.8422408"}
{"latitude": "13", "Phone": 9578754454, "name": "Olive", "longitude": "76"}
{"latitude": "11.999447", "Phone": 5675499944, "name": "Helen", "longitude": "-9.742744"}
{"latitude": "12.966", "Phone": 9854645967, "name": "Michael", "longitude": "77.463"}
{"latitude": "12.366037", "Phone": 7858495844, "name": "Ian", "longitude": "78.179118"}
{"latitude": "14.180238", "Phone": 8948594844, "name": "Patricia", "longitude": "-5.920898"}
{"latitude": "13.0033946", "Phone": 9857547754, "name": "Lisa", "longitude": "77.3877505"}
{"latitude": "12.228056", "Phone": 1854875454, "name": "Bob", "longitude": "76.915833"}
{"latitude": "14.133333", "Phone": 0948549855, "name": "Rose", "longitude": "77.433333"}
{"latitude": "55.033", "Phone": 1974654885, "name": "Enid", "longitude": "78.112"}
{"latitude": "13.121111", "Phone": 2084894855, "name": "Enid", "longitude": "-9.831111"}
{"latitude": "11.802", "Phone": 2184598404, "name": "David", "longitude": "-9.442"}
{"latitude": "14.374208", "Phone": 2285498544, "name": "Charlie", "longitude": "78.371639"}
{"latitude": "13.74412", "Phone": 9858494855, "name": "Oliver", "longitude": "76.11167"}
{"latitude": "13.761389", "Phone": 3095045454, "name": "Nick", "longitude": "76.2875"}
{"latitude": "14.080556", "Phone": 6647647744, "name": "Eoin", "longitude": "77.361944"}
{"latitude": "12.833502", "Phone": 6759485940, "name": "David", "longitude": "78.122366"}